{"status":"ok","chargelocations":[{"chargepoints":[{"type":"CCS","power":50,"count":1},{"type":"CHAdeMO","power":50,"count":1},{"type":"Typ2","power":22,"count":1}],"ge_id":445,"name":"Alsterperle","address":{"city":"Hamburg","country":"Deutschland","postcode":"22087","street":"Eduard-Rhein-Ufer 1"},"coordinates":{"lat":53.567822,"lng":10.016089},"network":"Stromnetz Hamburg","url":"//www.goingelectric.de/stromtankstellen/Deutschland/Hamburg/Alsterperle-Eduard-Rhein-Ufer-1/445/","fault_report":false,"verified":true},{"chargepoints":[{"type":"Typ2","power":22,"count":1},{"type":"Typ2","power":11,"count":1},{"type":"Schuko","power":2.3,"count":2}],"ge_id":452,"name":"U-Bahn Volksdorf","address":{"city":"Hamburg","country":"Deutschland","postcode":"22359","street":"Kattjahren 4"},"coordinates":{"lat":53.651859,"lng":10.162911},"network":"Stromnetz Hamburg","url":"//www.goingelectric.de/stromtankstellen/Deutschland/Hamburg/U-Bahn-Volksdorf-Kattjahren-4/452/","fault_report":false,"verified":true},{"chargepoints":[{"type":"Typ2","power":22,"count":2},{"type":"Schuko","power":2.3,"count":2}],"ge_id":453,"name":"S-Bahn Poppenbüttel","address":{"city":"Hamburg","country":"Deutschland","postcode":"22393","street":"Stormarnplatz 1"},"coordinates":{"lat":53.651653,"lng":10.094765},"network":"Stromnetz Hamburg","url":"//www.goingelectric.de/stromtankstellen/Deutschland/Hamburg/S-Bahn-Poppenbuettel-Stormarnplatz-1/453/","fault_report":false,"verified":true},{"chargepoints":[{"type":"Typ2","power":22,"count":2}],"ge_id":687,"name":"innogy Ladesäule","address":{"city":"Hamburg","country":"Deutschland","postcode":"22297","street":"Überseering 40"},"coordinates":{"lat":53.602158,"lng":10.016829},"network":"innogy eRoaming","url":"//www.goingelectric.de/stromtankstellen/Deutschland/Hamburg/innogy-Ladesaeule-Ueberseering-40/687/","fault_report":false,"verified":true},{"chargepoints":[{"type":"Typ2","power":22,"count":2}],"ge_id":761,"name":"SIXT","address":{"city":"Hamburg","country":"Deutschland","postcode":"20097","street":"Spaldingstraße 110"},"coordinates":{"lat":53.5495,"lng":10.0182},"network":"innogy eRoaming","url":"//www.goingelectric.de/stromtankstellen/Deutschland/Hamburg/SIXT-Spaldingstrasse-110/761/","fault_report":false,"verified":true},{"chargepoints":[{"type":"Typ2","power":22,"count":1},{"type":"Typ2","power":11,"count":1},{"type":"Schuko","power":2.3,"count":2}],"ge_id":1001,"name":"Borgweg","address":{"city":"Hamburg","country":"Deutschland","postcode":"22303","street":"Borgweg 10"},"coordinates":{"lat":53.589607,"lng":10.01606},"network":"Stromnetz Hamburg","url":"//www.goingelectric.de/stromtankstellen/Deutschland/Hamburg/Borgweg-Borgweg-10/1001/","fault_report":false,"verified":true},{"chargepoints":[{"type":"Typ2","power":22,"count":1},{"type":"Typ2","power":11,"count":1},{"type":"Schuko","power":2.3,"count":2}],"ge_id":1103,"name":"Tonndorf","address":{"city":"Hamburg","country":"Deutschland","postcode":"22045","street":"Stein-Hardenberg-Straße 85"},"coordinates":{"lat":53.588039,"lng":10.124695},"network":"Stromnetz Hamburg","url":"//www.goingelectric.de/stromtankstellen/Deutschland/Hamburg/Tonndorf-Stein-Hardenberg-Strasse-85/1103/","fault_report":false,"verified":true},{"chargepoints":[{"type":"Typ2","power":22,"count":2},{"type":"Schuko","power":2.3,"count":2}],"ge_id":1111,"name":"Lohmühlen","address":{"city":"Hamburg","country":"Deutschland","postcode":"20099","street":"Steindamm 94"},"coordinates":{"lat":53.555801,"lng":10.0179},"network":"Stromnetz Hamburg","url":"//www.goingelectric.de/stromtankstellen/Deutschland/Hamburg/Lohmuehlen-Steindamm-94/1111/","fault_report":false,"verified":true},{"chargepoints":[{"type":"Typ2","power":22,"count":2},{"type":"Schuko","power":2.3,"count":2}],"ge_id":1112,"name":"Karstadt Wandsbek","address":{"city":"Hamburg","country":"Deutschland","postcode":"22041","street":"Wandsbeker Königstraße 10"},"coordinates":{"lat":53.572231,"lng":10.064226},"network":"Stromnetz Hamburg","url":"//www.goingelectric.de/stromtankstellen/Deutschland/Hamburg/Karstadt-Wandsbek-Wandsbeker-Koenigstrasse-10/1112/","fault_report":false,"verified":true},{"chargepoints":[{"type":"Typ2","power":22,"count":1},{"type":"Typ2","power":11,"count":1},{"type":"Schuko","power":2.3,"count":2}],"ge_id":1114,"name":"Hudtwalcker","address":{"city":"Hamburg","country":"Deutschland","postcode":"22297","street":"Bebelallee 1"},"coordinates":{"lat":53.594227,"lng":9.995613},"network":"Stromnetz Hamburg","url":"//www.goingelectric.de/stromtankstellen/Deutschland/Hamburg/Hudtwalcker-Bebelallee-1/1114/","fault_report":false,"verified":true},{"chargepoints":[{"type":"Typ2","power":22,"count":2}],"ge_id":1256,"name":"TÜV Hanse","address":{"city":"Hamburg","country":"Deutschland","postcode":"22047","street":"Friedrich-Ebert-Damm 103"},"coordinates":{"lat":53.587898,"lng":10.0895},"network":"innogy eRoaming","url":"//www.goingelectric.de/stromtankstellen/Deutschland/Hamburg/TUeV-Hanse-Friedrich-Ebert-Damm-103/1256/","fault_report":false,"verified":true},{"chargepoints":[{"type":"CHAdeMO","power":44,"count":2}],"ge_id":2393,"name":"Autohaus Günther","address":{"city":"Hamburg","country":"Deutschland","postcode":"20537","street":"Ausschlägerweg 49"},"coordinates":{"lat":53.550404,"lng":10.037175},"network":false,"url":"//www.goingelectric.de/stromtankstellen/Deutschland/Hamburg/Autohaus-Guenther-Ausschlaegerweg-49/2393/","fault_report":false,"verified":true},{"chargepoints":[{"type":"CEE Rot","power":22,"count":1},{"type":"Schuko","power":2.3,"count":1}],"ge_id":3332,"name":"Drehstromkiste.Asmus","address":{"city":"Hamburg","country":"Deutschland","postcode":"22147","street":"Raschweg 44"},"coordinates":{"lat":53.613043,"lng":10.138707},"network":"Crowdfunding","url":"//www.goingelectric.de/stromtankstellen/Deutschland/Hamburg/DrehstromkisteAsmus-Raschweg-44/3332/","fault_report":false,"verified":true},{"chargepoints":[{"type":"Typ2","power":22,"count":1},{"type":"CHAdeMO","power":20,"count":1},{"type":"Typ2","power":11,"count":2},{"type":"Schuko","power":2.3,"count":2}],"ge_id":5458,"name":"Vattenfall","address":{"city":"Hamburg","country":"Deutschland","postcode":"22297","street":"Überseering 12"},"coordinates":{"lat":53.607357,"lng":10.024357},"network":"Vattenfall","url":"//www.goingelectric.de/stromtankstellen/Deutschland/Hamburg/Vattenfall-Ueberseering-12/5458/","fault_report":false,"verified":true},{"chargepoints":[{"type":"CHAdeMO","power":44,"count":1}],"ge_id":6777,"name":"Nissan Autohaus Günther","address":{"city":"Hamburg","country":"Deutschland","postcode":"22159","street":"Friedrich-Ebert-Damm 319"},"coordinates":{"lat":53.603271,"lng":10.114897},"network":false,"url":"//www.goingelectric.de/stromtankstellen/Deutschland/Hamburg/Nissan-Autohaus-Guenther-Friedrich-Ebert-Damm-319/6777/","fault_report":false,"verified":true},{"chargepoints":[{"type":"CCS","power":50,"count":1},{"type":"Typ2","power":22,"count":1}],"ge_id":8051,"name":"BMW Filiale City Süd","address":{"city":"Hamburg","country":"Deutschland","postcode":"20537","street":"Süderstraße 141"},"coordinates":{"lat":53.547455,"lng":10.035779},"network":"Digital Energy Solutions","url":"//www.goingelectric.de/stromtankstellen/Deutschland/Hamburg/BMW-Filiale-City-Sued-Suederstrasse-141/8051/","fault_report":false,"verified":true},{"chargepoints":[{"type":"CCS","power":50,"count":1},{"type":"Typ2","power":22,"count":1}],"ge_id":8052,"name":"BMW Filiale Wandsbek","address":{"city":"Hamburg","country":"Deutschland","postcode":"22047","street":"Friedrich-Ebert-Damm 120"},"coordinates":{"lat":53.587009,"lng":10.094748},"network":"Digital Energy Solutions","url":"//www.goingelectric.de/stromtankstellen/Deutschland/Hamburg/BMW-Filiale-Wandsbek-Friedrich-Ebert-Damm-120/8052/","fault_report":false,"verified":true},{"chargepoints":[{"type":"Typ2","power":22,"count":1},{"type":"CHAdeMO","power":20,"count":1},{"type":"CCS","power":20,"count":1}],"ge_id":8058,"name":"Total Mundsburger Damm","address":{"city":"Hamburg","country":"Deutschland","postcode":"22087","street":"Mundsburger Damm 47"},"coordinates":{"lat":53.568535,"lng":10.024155},"network":"Stromnetz Hamburg","url":"//www.goingelectric.de/stromtankstellen/Deutschland/Hamburg/Total-Mundsburger-Damm-Mundsburger-Damm-47/8058/","fault_report":true,"verified":true},{"chargepoints":[{"type":"Typ2","power":22,"count":1},{"type":"CHAdeMO","power":20,"count":1},{"type":"CCS","power":20,"count":1}],"ge_id":8695,"name":"Total Tankstelle","address":{"city":"Hamburg","country":"Deutschland","postcode":"20537","street":"Hammer Landstraße 212"},"coordinates":{"lat":53.553967,"lng":10.063616},"network":"Stromnetz Hamburg","url":"//www.goingelectric.de/stromtankstellen/Deutschland/Hamburg/Total-Tankstelle-Hammer-Landstrasse-212/8695/","fault_report":false,"verified":true},{"chargepoints":[{"type":"Typ2","power":22,"count":2},{"type":"Schuko","power":2.3,"count":2}],"ge_id":10600,"name":"Erdkampsweg","address":{"city":"Hamburg","country":"Deutschland","postcode":"22335","street":"Erdkampsweg 20"},"coordinates":{"lat":53.628144,"lng":10.024536},"network":"Stromnetz Hamburg","url":"//www.goingelectric.de/stromtankstellen/Deutschland/Hamburg/Erdkampsweg-Erdkampsweg-20/10600/","fault_report":false,"verified":true},{"chargepoints":[{"type":"Typ2","power":22,"count":2},{"type":"Schuko","power":2.3,"count":2}],"ge_id":10689,"name":"Familienbad Ohlsdorf","address":{"city":"Hamburg","country":"Deutschland","postcode":"22337","street":"Im Grünen Grunde 1c"},"coordinates":{"lat":53.621449,"lng":10.03082},"network":"Stromnetz Hamburg","url":"//www.goingelectric.de/stromtankstellen/Deutschland/Hamburg/Familienbad-Ohlsdorf-Im-Gruenen-Grunde-1c/10689/","fault_report":false,"verified":true},{"chargepoints":[{"type":"Typ2","power":22,"count":2},{"type":"Schuko","power":2.3,"count":2}],"ge_id":10773,"name":"Schweimlerstraße","address":{"city":"Hamburg","country":"Deutschland","postcode":"22087","street":"Schweimlerstraße 1"},"coordinates":{"lat":53.561661,"lng":10.01647},"network":"Stromnetz Hamburg","url":"//www.goingelectric.de/stromtankstellen/Deutschland/Hamburg/Schweimlerstrasse-Schweimlerstrasse-1/10773/","fault_report":false,"verified":true},{"chargepoints":[{"type":"Typ2","power":22,"count":2},{"type":"Schuko","power":2.3,"count":2}],"ge_id":10811,"name":"Poppenhusenstraße","address":{"city":"Hamburg","country":"Deutschland","postcode":"22305","street":"Poppenhusenstraße 2"},"coordinates":{"lat":53.585579,"lng":10.043017},"network":"Stromnetz Hamburg","url":"//www.goingelectric.de/stromtankstellen/Deutschland/Hamburg/Poppenhusenstrasse-Poppenhusenstrasse-2/10811/","fault_report":false,"verified":true},{"chargepoints":[{"type":"Typ2","power":22,"count":2},{"type":"Schuko","power":2.3,"count":2}],"ge_id":10862,"name":"Kurt-Schumacher-Haus","address":{"city":"Hamburg","country":"Deutschland","postcode":"20097","street":"Kurt-Schumacher-Allee 10"},"coordinates":{"lat":53.552231,"lng":10.01819},"network":"Stromnetz Hamburg","url":"//www.goingelectric.de/stromtankstellen/Deutschland/Hamburg/Kurt-Schumacher-Haus-Kurt-Schumacher-Allee-10/10862/","fault_report":false,"verified":true},{"chargepoints":[{"type":"Typ2","power":22,"count":2},{"type":"Schuko","power":2.3,"count":2}],"ge_id":10869,"name":"Kampnagel","address":{"city":"Hamburg","country":"Deutschland","postcode":"22303","street":"Jarrestraße 10"},"coordinates":{"lat":53.584141,"lng":10.02172},"network":"Stromnetz Hamburg","url":"//www.goingelectric.de/stromtankstellen/Deutschland/Hamburg/Kampnagel-Jarrestrasse-10/10869/","fault_report":false,"verified":true},{"chargepoints":[{"type":"Typ2","power":22,"count":2},{"type":"Schuko","power":2.3,"count":2}],"ge_id":10872,"name":"Bundesbauabteilung","address":{"city":"Hamburg","country":"Deutschland","postcode":"22089","street":"Pappelallee 41"},"coordinates":{"lat":53.56739,"lng":10.05927},"network":"Stromnetz Hamburg","url":"//www.goingelectric.de/stromtankstellen/Deutschland/Hamburg/Bundesbauabteilung-Pappelallee-41/10872/","fault_report":false,"verified":true},{"chargepoints":[{"type":"Typ2","power":22,"count":2},{"type":"Schuko","power":2.3,"count":2}],"ge_id":11146,"name":"Bildungszentrum Vattenfall","address":{"city":"Hamburg","country":"Deutschland","postcode":"22177","street":"Moosrosenweg 18"},"coordinates":{"lat":53.60318,"lng":10.069},"network":"Stromnetz Hamburg","url":"//www.goingelectric.de/stromtankstellen/Deutschland/Hamburg/Bildungszentrum-Vattenfall-Moosrosenweg-18/11146/","fault_report":false,"verified":true},{"chargepoints":[{"type":"Tesla Supercharger CCS","power":250,"count":4},{"type":"Tesla Supercharger","power":150,"count":8},{"type":"Tesla Supercharger CCS","power":150,"count":8}],"ge_id":11279,"name":"Supercharger Braaker Mühle","address":{"city":"Braak","country":"Deutschland","postcode":"22145","street":"Braaker Bogen 33"},"coordinates":{"lat":53.617994,"lng":10.239373},"network":"Tesla Supercharger","url":"//www.goingelectric.de/stromtankstellen/Deutschland/Braak/Supercharger-Braaker-Muehle-Braaker-Bogen-33/11279/","fault_report":false,"verified":true},{"chargepoints":[{"type":"Typ2","power":22,"count":2},{"type":"Schuko","power":2.3,"count":2}],"ge_id":11395,"name":"Hochtief Haus","address":{"city":"Hamburg","country":"Deutschland","postcode":"22307","street":"Fuhlsbüttler Straße 399"},"coordinates":{"lat":53.6026,"lng":10.0407},"network":"Stromnetz Hamburg","url":"//www.goingelectric.de/stromtankstellen/Deutschland/Hamburg/Hochtief-Haus-Fuhlsbuettler-Strasse-399/11395/","fault_report":false,"verified":true},{"chargepoints":[{"type":"Typ2","power":22,"count":2},{"type":"Schuko","power":2.3,"count":2}],"ge_id":13889,"name":"Von-Essen-Straße","address":{"city":"Hamburg","country":"Deutschland","postcode":"22081","street":"Von-Essen-Straße 75"},"coordinates":{"lat":53.575001,"lng":10.04439},"network":"Stromnetz Hamburg","url":"//www.goingelectric.de/stromtankstellen/Deutschland/Hamburg/Von-Essen-Strasse-Von-Essen-Strasse-75/13889/","fault_report":false,"verified":true},{"chargepoints":[{"type":"Typ2","power":22,"count":2},{"type":"Schuko","power":2.3,"count":2}],"ge_id":13928,"name":"Überseering","address":{"city":"Hamburg","country":"Deutschland","postcode":"22297","street":"Überseering 5"},"coordinates":{"lat":53.602337,"lng":10.024647},"network":"Stromnetz Hamburg","url":"//www.goingelectric.de/stromtankstellen/Deutschland/Hamburg/Ueberseering-Ueberseering-5/13928/","fault_report":false,"verified":true},{"chargepoints":[{"type":"Typ2","power":22,"count":2},{"type":"Schuko","power":2.3,"count":2}],"ge_id":15225,"name":"Dehnhaide Grill","address":{"city":"Hamburg","country":"Deutschland","postcode":"22081","street":"Dehnhaide 12"},"coordinates":{"lat":53.579037,"lng":10.042597},"network":"Stromnetz Hamburg","url":"//www.goingelectric.de/stromtankstellen/Deutschland/Hamburg/Dehnhaide-Grill-Dehnhaide-12/15225/","fault_report":false,"verified":true},{"chargepoints":[{"type":"CCS","power":40,"count":1},{"type":"CHAdeMO","power":20,"count":1},{"type":"Typ2","power":11,"count":1}],"ge_id":15633,"name":"Alstercity","address":{"city":"Hamburg","country":"Deutschland","postcode":"22083","street":"Weidestraße 122"},"coordinates":{"lat":53.581573,"lng":10.026825},"network":"Stromnetz Hamburg","url":"//www.goingelectric.de/stromtankstellen/Deutschland/Hamburg/Alstercity-Weidestrasse-122/15633/","fault_report":true,"verified":true},{"chargepoints":[{"type":"Typ2","power":22,"count":2},{"type":"Schuko","power":2.3,"count":2}],"ge_id":15735,"name":"Alsterdorfer Straße","address":{"city":"Hamburg","country":"Deutschland","postcode":"22297","street":"Alsterdorfer Straße 261"},"coordinates":{"lat":53.607712,"lng":10.00632},"network":"Stromnetz Hamburg","url":"//www.goingelectric.de/stromtankstellen/Deutschland/Hamburg/Alsterdorfer-Strasse-Alsterdorfer-Strasse-261/15735/","fault_report":false,"verified":true},{"chargepoints":[{"type":"Typ2","power":22,"count":2},{"type":"Schuko","power":2.3,"count":2}],"ge_id":15737,"name":"Schinkelstraße","address":{"city":"Hamburg","country":"Deutschland","postcode":"22303","street":"Schinkelstraße 1"},"coordinates":{"lat":53.581879,"lng":10.01347},"network":"Stromnetz Hamburg","url":"//www.goingelectric.de/stromtankstellen/Deutschland/Hamburg/Schinkelstrasse-Schinkelstrasse-1/15737/","fault_report":false,"verified":true},{"chargepoints":[{"type":"Typ2","power":22,"count":1},{"type":"Typ2","power":11,"count":1},{"type":"Schuko","power":2.3,"count":2}],"ge_id":15740,"name":"KFZ-Zulassungsstelle","address":{"city":"Hamburg","country":"Deutschland","postcode":"20537","street":"Ausschläger Weg 100"},"coordinates":{"lat":53.546402,"lng":10.039314},"network":"Stromnetz Hamburg","url":"//www.goingelectric.de/stromtankstellen/Deutschland/Hamburg/KFZ-Zulassungsstelle-Ausschlaeger-Weg-100/15740/","fault_report":true,"verified":true},{"chargepoints":[{"type":"Typ2","power":22,"count":2},{"type":"Schuko","power":2.3,"count":2}],"ge_id":16162,"name":"Saseler Markt","address":{"city":"Hamburg","country":"Deutschland","postcode":"22393","street":"Waldweg 4"},"coordinates":{"lat":53.653351,"lng":10.11402},"network":"Stromnetz Hamburg","url":"//www.goingelectric.de/stromtankstellen/Deutschland/Hamburg/Saseler-Markt-Waldweg-4/16162/","fault_report":false,"verified":true},{"chargepoints":[{"type":"Typ2","power":22,"count":2},{"type":"Schuko","power":2.3,"count":2}],"ge_id":16163,"name":"Marktplatz-Galerie Bramfeld","address":{"city":"Hamburg","country":"Deutschland","postcode":"22177","street":"Bramfelder Chaussee 238a"},"coordinates":{"lat":53.61285,"lng":10.075383},"network":"Stromnetz Hamburg","url":"//www.goingelectric.de/stromtankstellen/Deutschland/Hamburg/Marktplatz-Galerie-Bramfeld-Bramfelder-Chaussee-238a/16163/","fault_report":false,"verified":true},{"chargepoints":[{"type":"Typ2","power":22,"count":2},{"type":"Schuko","power":2.3,"count":2}],"ge_id":16447,"name":"Lademannbogen","address":{"city":"Hamburg","country":"Deutschland","postcode":"22339","street":"Lademannbogen 135"},"coordinates":{"lat":53.64642,"lng":10.030752},"network":"Stromnetz Hamburg","url":"//www.goingelectric.de/stromtankstellen/Deutschland/Hamburg/Lademannbogen-Lademannbogen-135/16447/","fault_report":false,"verified":true},{"chargepoints":[{"type":"CCS","power":50,"count":1},{"type":"CHAdeMO","power":50,"count":1},{"type":"Typ2","power":11,"count":1}],"ge_id":16448,"name":"Wandsbeker Zollstraße","address":{"city":"Hamburg","country":"Deutschland","postcode":"22041","street":"Wandsbeker Zollstraße 15"},"coordinates":{"lat":53.574791,"lng":10.074181},"network":"Stromnetz Hamburg","url":"//www.goingelectric.de/stromtankstellen/Deutschland/Hamburg/Wandsbeker-Zollstrasse-Wandsbeker-Zollstrasse-15/16448/","fault_report":true,"verified":true},{"chargepoints":[{"type":"Typ2","power":22,"count":2},{"type":"Schuko","power":2.3,"count":2}],"ge_id":16567,"name":"Bundeswehr Universität","address":{"city":"Hamburg","country":"Deutschland","postcode":"22043","street":"Holstenhofweg 85"},"coordinates":{"lat":53.568386,"lng":10.106183},"network":"Stromnetz Hamburg","url":"//www.goingelectric.de/stromtankstellen/Deutschland/Hamburg/Bundeswehr-Universitaet-Holstenhofweg-85/16567/","fault_report":false,"verified":true},{"chargepoints":[{"type":"Typ2","power":22,"count":2},{"type":"Schuko","power":2.3,"count":2}],"ge_id":16571,"name":"Bundeswehrkrankenhaus","address":{"city":"Hamburg","country":"Deutschland","postcode":"22049","street":"Lesserstraße 170"},"coordinates":{"lat":53.592995,"lng":10.074828},"network":"Stromnetz Hamburg","url":"//www.goingelectric.de/stromtankstellen/Deutschland/Hamburg/Bundeswehrkrankenhaus-Lesserstrasse-170/16571/","fault_report":false,"verified":true},{"chargepoints":[{"type":"CHAdeMO","power":44,"count":1}],"ge_id":16805,"name":"Nissan Autohaus Günther","address":{"city":"Hamburg","country":"Deutschland","postcode":"22339","street":"Poppenbütteler Bogen 33"},"coordinates":{"lat":53.668888,"lng":10.069946},"network":false,"url":"//www.goingelectric.de/stromtankstellen/Deutschland/Hamburg/Nissan-Autohaus-Guenther-Poppenbuetteler-Bogen-33/16805/","fault_report":false,"verified":true},{"chargepoints":[{"type":"Typ2","power":22,"count":2},{"type":"Schuko","power":2.3,"count":2}],"ge_id":17099,"name":"Alstertal Einkaufszentrum","address":{"city":"Hamburg","country":"Deutschland","postcode":"22391","street":"Heegbarg 12"},"coordinates":{"lat":53.653698,"lng":10.092547},"network":"Stromnetz Hamburg","url":"//www.goingelectric.de/stromtankstellen/Deutschland/Hamburg/Alstertal-Einkaufszentrum-Heegbarg-12/17099/","fault_report":false,"verified":true},{"chargepoints":[{"type":"Typ2","power":22,"count":2},{"type":"Schuko","power":2.3,"count":2}],"ge_id":17159,"name":"Roßberg","address":{"city":"Hamburg","country":"Deutschland","postcode":"22089","street":"Roßberg 2"},"coordinates":{"lat":53.567829,"lng":10.04944},"network":"Stromnetz Hamburg","url":"//www.goingelectric.de/stromtankstellen/Deutschland/Hamburg/Rossberg-Rossberg-2/17159/","fault_report":false,"verified":true},{"chargepoints":[{"type":"Typ2","power":22,"count":2},{"type":"Schuko","power":2.3,"count":2}],"ge_id":17168,"name":"Fuhlsbüttler Straße","address":{"city":"Hamburg","country":"Deutschland","postcode":"22305","street":"Fuhlsbüttler Straße 149"},"coordinates":{"lat":53.59182,"lng":10.04395},"network":"Stromnetz Hamburg","url":"//www.goingelectric.de/stromtankstellen/Deutschland/Hamburg/Fuhlsbuettler-Strasse-Fuhlsbuettler-Strasse-149/17168/","fault_report":false,"verified":true},{"chargepoints":[{"type":"Typ2","power":22,"count":2}],"ge_id":17571,"name":"Nord-Ostsee Automobile","address":{"city":"Hamburg","country":"Deutschland","postcode":"22339","street":"Poppenbütteler Weg 5"},"coordinates":{"lat":53.649738,"lng":10.034316},"network":"NewMotion","url":"//www.goingelectric.de/stromtankstellen/Deutschland/Hamburg/Nord-Ostsee-Automobile-Poppenbuetteler-Weg-5/17571/","fault_report":false,"verified":true},{"chargepoints":[{"type":"Typ2","power":22,"count":4}],"ge_id":17857,"name":"P+R-Parkhaus am S-Bahnhof Poppenbüttel","address":{"city":"Hamburg","country":"Deutschland","postcode":"22393","street":"Stormarnplatz 3"},"coordinates":{"lat":53.651741,"lng":10.09432},"network":"Stromnetz Hamburg","url":"//www.goingelectric.de/stromtankstellen/Deutschland/Hamburg/PR-Parkhaus-am-S-Bahnhof-Poppenbuettel-Stormarnplatz-3/17857/","fault_report":false,"verified":true},{"chargepoints":[{"type":"Typ2","power":22,"count":2},{"type":"Schuko","power":2.3,"count":2}],"ge_id":17979,"name":"S-Bahn Rothenburgsort","address":{"city":"Hamburg","country":"Deutschland","postcode":"20539","street":"Billhorner Deich 96"},"coordinates":{"lat":53.539581,"lng":10.04259},"network":"Stromnetz Hamburg","url":"//www.goingelectric.de/stromtankstellen/Deutschland/Hamburg/S-Bahn-Rothenburgsort-Billhorner-Deich-96/17979/","fault_report":false,"verified":true},{"chargepoints":[{"type":"Typ2","power":22,"count":2},{"type":"Schuko","power":2.3,"count":2}],"ge_id":18022,"name":"Sierichstraße","address":{"city":"Hamburg","country":"Deutschland","postcode":"22301","street":"Sierichstraße 78"},"coordinates":{"lat":53.584782,"lng":10.00494},"network":"Stromnetz Hamburg","url":"//www.goingelectric.de/stromtankstellen/Deutschland/Hamburg/Sierichstrasse-Sierichstrasse-78/18022/","fault_report":false,"verified":true},{"chargepoints":[{"type":"Typ2","power":22,"count":2},{"type":"Schuko","power":2.3,"count":2}],"ge_id":18693,"name":"EKZ Horn","address":{"city":"Hamburg","country":"Deutschland","postcode":"22111","street":"Meurerweg 5"},"coordinates":{"lat":53.55365,"lng":10.08678},"network":"Stromnetz Hamburg","url":"//www.goingelectric.de/stromtankstellen/Deutschland/Hamburg/EKZ-Horn-Meurerweg-5/18693/","fault_report":true,"verified":true},{"chargepoints":[{"type":"Typ2","power":22,"count":2},{"type":"Schuko","power":2.3,"count":2}],"ge_id":18694,"name":"Sachsenfeld","address":{"city":"Hamburg","country":"Deutschland","postcode":"20097","street":"Sachsenfeld 3"},"coordinates":{"lat":53.545101,"lng":10.02232},"network":"Stromnetz Hamburg","url":"//www.goingelectric.de/stromtankstellen/Deutschland/Hamburg/Sachsenfeld-Sachsenfeld-3/18694/","fault_report":false,"verified":true},{"chargepoints":[{"type":"CCS","power":50,"count":1},{"type":"CHAdeMO","power":50,"count":1},{"type":"Typ2","power":11,"count":1}],"ge_id":18734,"name":"Schnellladesäule Wagnerstraße","address":{"city":"Hamburg","country":"Deutschland","postcode":"22087","street":"Wagnerstraße 2"},"coordinates":{"lat":53.574947,"lng":10.036263},"network":"Stromnetz Hamburg","url":"//www.goingelectric.de/stromtankstellen/Deutschland/Hamburg/Schnellladesaeule-Wagnerstrasse-Wagnerstrasse-2/18734/","fault_report":false,"verified":true},{"chargepoints":[{"type":"CCS","power":50,"count":1},{"type":"CHAdeMO","power":50,"count":1},{"type":"Typ2","power":11,"count":1}],"ge_id":18864,"name":"Studio Hamburg","address":{"city":"Hamburg","country":"Deutschland","postcode":"22045","street":"Jenfelder Allee 80"},"coordinates":{"lat":53.58411,"lng":10.12626},"network":"Stromnetz Hamburg","url":"//www.goingelectric.de/stromtankstellen/Deutschland/Hamburg/Studio-Hamburg-Jenfelder-Allee-80/18864/","fault_report":true,"verified":true},{"chargepoints":[{"type":"Typ2","power":22,"count":2},{"type":"Schuko","power":2.3,"count":2}],"ge_id":18878,"name":"Sodenkamp","address":{"city":"Hamburg","country":"Deutschland","postcode":"22337","street":"Sodenkamp 8b"},"coordinates":{"lat":53.63044,"lng":10.0501},"network":"Stromnetz Hamburg","url":"//www.goingelectric.de/stromtankstellen/Deutschland/Hamburg/Sodenkamp-Sodenkamp-8b/18878/","fault_report":false,"verified":true},{"chargepoints":[{"type":"Typ2","power":22,"count":2},{"type":"Schuko","power":2.3,"count":2}],"ge_id":18930,"name":"Greifswalder Straße","address":{"city":"Hamburg","country":"Deutschland","postcode":"20099","street":"Greifswalder Straße 37"},"coordinates":{"lat":53.557289,"lng":10.01177},"network":"Stromnetz Hamburg","url":"//www.goingelectric.de/stromtankstellen/Deutschland/Hamburg/Greifswalder-Strasse-Greifswalder-Strasse-37/18930/","fault_report":false,"verified":true},{"chargepoints":[{"type":"Typ2","power":22,"count":2},{"type":"Schuko","power":2.3,"count":2}],"ge_id":18995,"name":"Marienkrankenhaus","address":{"city":"Hamburg","country":"Deutschland","postcode":"22087","street":"Angerstraße 11"},"coordinates":{"lat":53.559952,"lng":10.03209},"network":"Stromnetz Hamburg","url":"//www.goingelectric.de/stromtankstellen/Deutschland/Hamburg/Marienkrankenhaus-Angerstrasse-11/18995/","fault_report":false,"verified":true},{"chargepoints":[{"type":"Typ2","power":22,"count":2},{"type":"Schuko","power":2.3,"count":2}],"ge_id":19117,"name":"Neusurenland","address":{"city":"Hamburg","country":"Deutschland","postcode":"22159","street":"Neusurenland 103"},"coordinates":{"lat":53.616459,"lng":10.1139},"network":"Stromnetz Hamburg","url":"//www.goingelectric.de/stromtankstellen/Deutschland/Hamburg/Neusurenland-Neusurenland-103/19117/","fault_report":false,"verified":true},{"chargepoints":[{"type":"Typ2","power":22,"count":2},{"type":"Schuko","power":2.3,"count":2}],"ge_id":19153,"name":"Cesar-Klein-Ring","address":{"city":"Hamburg","country":"Deutschland","postcode":"22309","street":"Cesar-Klein-Ring 2"},"coordinates":{"lat":53.609959,"lng":10.05801},"network":"Stromnetz Hamburg","url":"//www.goingelectric.de/stromtankstellen/Deutschland/Hamburg/Cesar-Klein-Ring-Cesar-Klein-Ring-2/19153/","fault_report":false,"verified":true},{"chargepoints":[{"type":"Typ2","power":22,"count":2},{"type":"Schuko","power":2.3,"count":2}],"ge_id":19211,"name":"Volksdorfer Damm","address":{"city":"Hamburg","country":"Deutschland","postcode":"22395","street":"Volksdorfer Damm 252"},"coordinates":{"lat":53.670959,"lng":10.12933},"network":"Stromnetz Hamburg","url":"//www.goingelectric.de/stromtankstellen/Deutschland/Hamburg/Volksdorfer-Damm-Volksdorfer-Damm-252/19211/","fault_report":false,"verified":true},{"chargepoints":[{"type":"Typ2","power":22,"count":2},{"type":"Schuko","power":2.3,"count":2}],"ge_id":19544,"name":"Markt","address":{"city":"Glinde","country":"Deutschland","postcode":"21509","street":"Markt 2"},"coordinates":{"lat":53.541504,"lng":10.211781},"network":"Ladenetz","url":"//www.goingelectric.de/stromtankstellen/Deutschland/Glinde/Markt-Markt-2/19544/","fault_report":false,"verified":true},{"chargepoints":[{"type":"CCS","power":50,"count":1},{"type":"CHAdeMO","power":50,"count":1},{"type":"Typ2","power":11,"count":1}],"ge_id":19672,"name":"Im alten Dorfe","address":{"city":"Hamburg","country":"Deutschland","postcode":"22359","street":"Im alten Dorfe 36"},"coordinates":{"lat":53.648827,"lng":10.167409},"network":"Stromnetz Hamburg","url":"//www.goingelectric.de/stromtankstellen/Deutschland/Hamburg/Im-alten-Dorfe-Im-alten-Dorfe-36/19672/","fault_report":false,"verified":true},{"chargepoints":[{"type":"Typ2","power":22,"count":2},{"type":"Schuko","power":2.3,"count":2}],"ge_id":19801,"name":"Friedrich-Ebert-Damm","address":{"city":"Hamburg","country":"Deutschland","postcode":"22047","street":"Friedrich-Ebert-Damm 120"},"coordinates":{"lat":53.58786,"lng":10.09389},"network":"Stromnetz Hamburg","url":"//www.goingelectric.de/stromtankstellen/Deutschland/Hamburg/Friedrich-Ebert-Damm-Friedrich-Ebert-Damm-120/19801/","fault_report":false,"verified":true},{"chargepoints":[{"type":"Typ2","power":22,"count":2},{"type":"Schuko","power":2.3,"count":2}],"ge_id":19839,"name":"Hauptstraße","address":{"city":"Barsbüttel","country":"Deutschland","postcode":"22885","street":"Hauptstraße 51"},"coordinates":{"lat":53.56916,"lng":10.167596},"network":"Ladenetz","url":"//www.goingelectric.de/stromtankstellen/Deutschland/Barsbuettel/Hauptstrasse-Hauptstrasse-51/19839/","fault_report":false,"verified":true},{"chargepoints":[{"type":"Typ2","power":22,"count":2},{"type":"Schuko","power":2.3,"count":2}],"ge_id":20616,"name":"Magazin Kino","address":{"city":"Hamburg","country":"Deutschland","postcode":"22299","street":"Fiefstücken 8"},"coordinates":{"lat":53.599831,"lng":10.00374},"network":"Stromnetz Hamburg","url":"//www.goingelectric.de/stromtankstellen/Deutschland/Hamburg/Magazin-Kino-Fiefstuecken-8/20616/","fault_report":false,"verified":true},{"chargepoints":[{"type":"Typ2","power":22,"count":2},{"type":"Schuko","power":2.3,"count":2}],"ge_id":20617,"name":"Dorotheenstraße","address":{"city":"Hamburg","country":"Deutschland","postcode":"22301","street":"Dorotheenstraße 36"},"coordinates":{"lat":53.581188,"lng":10.0096},"network":"Stromnetz Hamburg","url":"//www.goingelectric.de/stromtankstellen/Deutschland/Hamburg/Dorotheenstrasse-Dorotheenstrasse-36/20617/","fault_report":false,"verified":true},{"chargepoints":[{"type":"Typ2","power":22,"count":2},{"type":"Schuko","power":2.3,"count":2}],"ge_id":21037,"name":"Flotowstraße","address":{"city":"Hamburg","country":"Deutschland","postcode":"22083","street":"Flotowstraße 2"},"coordinates":{"lat":53.577881,"lng":10.02753},"network":"Stromnetz Hamburg","url":"//www.goingelectric.de/stromtankstellen/Deutschland/Hamburg/Flotowstrasse-Flotowstrasse-2/21037/","fault_report":true,"verified":true},{"chargepoints":[{"type":"Typ2","power":22,"count":2},{"type":"Schuko","power":2.3,"count":2}],"ge_id":21038,"name":"Armgartstraße","address":{"city":"Hamburg","country":"Deutschland","postcode":"22087","street":"Armgartstraße 14"},"coordinates":{"lat":53.56522,"lng":10.02003},"network":"Stromnetz Hamburg","url":"//www.goingelectric.de/stromtankstellen/Deutschland/Hamburg/Armgartstrasse-Armgartstrasse-14/21038/","fault_report":false,"verified":true},{"chargepoints":[{"type":"Typ2","power":22,"count":2},{"type":"Schuko","power":2.3,"count":2}],"ge_id":21049,"name":"Alsterdorfer Straße","address":{"city":"Hamburg","country":"Deutschland","postcode":"22299","street":"Alsterdorfer Straße 9"},"coordinates":{"lat":53.59539,"lng":9.99807},"network":"Stromnetz Hamburg","url":"//www.goingelectric.de/stromtankstellen/Deutschland/Hamburg/Alsterdorfer-Strasse-Alsterdorfer-Strasse-9/21049/","fault_report":false,"verified":true},{"chargepoints":[{"type":"Typ2","power":22,"count":2},{"type":"Schuko","power":2.3,"count":2}],"ge_id":21125,"name":"Langenhorner Straße-Ost","address":{"city":"Hamburg","country":"Deutschland","postcode":"22399","street":"Langenhorner Straße-Ost 7"},"coordinates":{"lat":53.663761,"lng":10.07455},"network":"Stromnetz Hamburg","url":"//www.goingelectric.de/stromtankstellen/Deutschland/Hamburg/Langenhorner-Strasse-Ost-Langenhorner-Strasse-Ost-7/21125/","fault_report":false,"verified":true},{"chargepoints":[{"type":"Typ2","power":22,"count":2},{"type":"Schuko","power":2.3,"count":2}],"ge_id":21480,"name":"Penny","address":{"city":"Hamburg","country":"Deutschland","postcode":"22147","street":"Hermann-Balk-Straße 124"},"coordinates":{"lat":53.62561,"lng":10.140691},"network":"Stromnetz Hamburg","url":"//www.goingelectric.de/stromtankstellen/Deutschland/Hamburg/Penny-Hermann-Balk-Strasse-124/21480/","fault_report":false,"verified":true},{"chargepoints":[{"type":"CCS","power":50,"count":1},{"type":"CHAdeMO","power":50,"count":1},{"type":"Typ2","power":11,"count":1}],"ge_id":21493,"name":"Poppenbüttler Markt","address":{"city":"Hamburg","country":"Deutschland","postcode":"22399","street":"Poppenbüttler Markt 12"},"coordinates":{"lat":53.660309,"lng":10.086707},"network":"Stromnetz Hamburg","url":"//www.goingelectric.de/stromtankstellen/Deutschland/Hamburg/Poppenbuettler-Markt-Poppenbuettler-Markt-12/21493/","fault_report":false,"verified":true},{"chargepoints":[{"type":"Typ2","power":22,"count":2},{"type":"Schuko","power":2.3,"count":2}],"ge_id":21602,"name":"Einkaufscenter Jenfeld","address":{"city":"Hamburg","country":"Deutschland","postcode":"22043","street":"Öjendorfer Damm 60"},"coordinates":{"lat":53.571831,"lng":10.1364},"network":"Stromnetz Hamburg","url":"//www.goingelectric.de/stromtankstellen/Deutschland/Hamburg/Einkaufscenter-Jenfeld-Oejendorfer-Damm-60/21602/","fault_report":false,"verified":true},{"chargepoints":[{"type":"Typ2","power":22,"count":2},{"type":"Schuko","power":2.3,"count":2}],"ge_id":21709,"name":"Rahlstedt Center","address":{"city":"Hamburg","country":"Deutschland","postcode":"22143","street":"Rahlstedter Straße 154"},"coordinates":{"lat":53.604359,"lng":10.16062},"network":"Stromnetz Hamburg","url":"//www.goingelectric.de/stromtankstellen/Deutschland/Hamburg/Rahlstedt-Center-Rahlstedter-Strasse-154/21709/","fault_report":false,"verified":true},{"chargepoints":[{"type":"Typ2","power":22,"count":2},{"type":"Schuko","power":2.3,"count":2}],"ge_id":21905,"name":"Walddörfer Rondell","address":{"city":"Hamburg","country":"Deutschland","postcode":"22359","street":"Volksdorfer Damm 186"},"coordinates":{"lat":53.669189,"lng":10.14353},"network":"Stromnetz Hamburg","url":"//www.goingelectric.de/stromtankstellen/Deutschland/Hamburg/Walddoerfer-Rondell-Volksdorfer-Damm-186/21905/","fault_report":false,"verified":true},{"chargepoints":[{"type":"CCS","power":50,"count":1},{"type":"CHAdeMO","power":50,"count":1},{"type":"Typ2","power":11,"count":1}],"ge_id":21927,"name":"Schnellladesäule Kantstraße","address":{"city":"Hamburg","country":"Deutschland","postcode":"22089","street":"Kantstraße 4"},"coordinates":{"lat":53.569061,"lng":10.05361},"network":"Stromnetz Hamburg","url":"//www.goingelectric.de/stromtankstellen/Deutschland/Hamburg/Schnellladesaeule-Kantstrasse-Kantstrasse-4/21927/","fault_report":true,"verified":true},{"chargepoints":[{"type":"Typ2","power":22,"count":2},{"type":"Schuko","power":2.3,"count":2}],"ge_id":22067,"name":"Grasweg","address":{"city":"Hamburg","country":"Deutschland","postcode":"22303","street":"Grasweg 70"},"coordinates":{"lat":53.593491,"lng":10.0103},"network":"Stromnetz Hamburg","url":"//www.goingelectric.de/stromtankstellen/Deutschland/Hamburg/Grasweg-Grasweg-70/22067/","fault_report":false,"verified":true},{"chargepoints":[{"type":"CCS","power":50,"count":1},{"type":"CHAdeMO","power":50,"count":1},{"type":"Typ2","power":11,"count":1}],"ge_id":22101,"name":"Schnellladesäule Marienthaler Straße","address":{"city":"Hamburg","country":"Deutschland","postcode":"20535","street":"Marienthaler Straße 1"},"coordinates":{"lat":53.560619,"lng":10.03833},"network":"Stromnetz Hamburg","url":"//www.goingelectric.de/stromtankstellen/Deutschland/Hamburg/Schnellladesaeule-Marienthaler-Strasse-Marienthaler-Strasse-1/22101/","fault_report":false,"verified":true},{"chargepoints":[{"type":"CCS","power":50,"count":1},{"type":"CHAdeMO","power":50,"count":1},{"type":"Typ2","power":11,"count":1}],"ge_id":22223,"name":"Schnellladesäule Grasweg","address":{"city":"Hamburg","country":"Deutschland","postcode":"22299","street":"Grasweg 6"},"coordinates":{"lat":53.592731,"lng":10.002125},"network":"Stromnetz Hamburg","url":"//www.goingelectric.de/stromtankstellen/Deutschland/Hamburg/Schnellladesaeule-Grasweg-Grasweg-6/22223/","fault_report":true,"verified":true},{"chargepoints":[{"type":"Typ2","power":22,"count":2},{"type":"Schuko","power":2.3,"count":2}],"ge_id":22475,"name":"Wentzelstraße","address":{"city":"Hamburg","country":"Deutschland","postcode":"22301","street":"Wentzelstraße 9"},"coordinates":{"lat":53.58065,"lng":10.00517},"network":"Stromnetz Hamburg","url":"//www.goingelectric.de/stromtankstellen/Deutschland/Hamburg/Wentzelstrasse-Wentzelstrasse-9/22475/","fault_report":false,"verified":true},{"chargepoints":[{"type":"Typ2","power":22,"count":2},{"type":"Schuko","power":2.3,"count":2}],"ge_id":22476,"name":"S-Bahn Alte Wöhr","address":{"city":"Hamburg","country":"Deutschland","postcode":"22307","street":"Alte Wöhr 20"},"coordinates":{"lat":53.597359,"lng":10.03629},"network":"Stromnetz Hamburg","url":"//www.goingelectric.de/stromtankstellen/Deutschland/Hamburg/S-Bahn-Alte-Woehr-Alte-Woehr-20/22476/","fault_report":false,"verified":true},{"chargepoints":[{"type":"Typ2","power":22,"count":2},{"type":"Schuko","power":2.3,"count":2}],"ge_id":22564,"name":"VfL 93 Hamburg e.V","address":{"city":"Hamburg","country":"Deutschland","postcode":"22303","street":"Barmbeker Straße 64"},"coordinates":{"lat":53.588333,"lng":10.016527},"network":"Stromnetz Hamburg","url":"//www.goingelectric.de/stromtankstellen/Deutschland/Hamburg/VfL-93-Hamburg-eV-Barmbeker-Strasse-64/22564/","fault_report":false,"verified":true},{"chargepoints":[{"type":"Typ2","power":22,"count":2},{"type":"Schuko","power":2.3,"count":2}],"ge_id":22596,"name":"Papenhude","address":{"city":"Hamburg","country":"Deutschland","postcode":"22087","street":"Papenhuder Straße 33"},"coordinates":{"lat":53.56702,"lng":10.018991},"network":"Stromnetz Hamburg","url":"//www.goingelectric.de/stromtankstellen/Deutschland/Hamburg/Papenhude-Papenhuder-Strasse-33/22596/","fault_report":false,"verified":true},{"chargepoints":[{"type":"Typ2","power":22,"count":2},{"type":"Schuko","power":2.3,"count":2}],"ge_id":22718,"name":"Birkenau","address":{"city":"Hamburg","country":"Deutschland","postcode":"22087","street":"Birkenau 24"},"coordinates":{"lat":53.568401,"lng":10.0287},"network":"Stromnetz Hamburg","url":"//www.goingelectric.de/stromtankstellen/Deutschland/Hamburg/Birkenau-Birkenau-24/22718/","fault_report":false,"verified":true},{"chargepoints":[{"type":"Typ2","power":22,"count":2},{"type":"Schuko","power":2.3,"count":2}],"ge_id":22719,"name":"Uhlandstraße","address":{"city":"Hamburg","country":"Deutschland","postcode":"22087","street":"Uhlandstraße 4"},"coordinates":{"lat":53.565159,"lng":10.02507},"network":"Stromnetz Hamburg","url":"//www.goingelectric.de/stromtankstellen/Deutschland/Hamburg/Uhlandstrasse-Uhlandstrasse-4/22719/","fault_report":false,"verified":true},{"chargepoints":[{"type":"Typ2","power":22,"count":2},{"type":"Schuko","power":2.3,"count":2}],"ge_id":22720,"name":"Körnerstraße","address":{"city":"Hamburg","country":"Deutschland","postcode":"22301","street":"Körnerstraße 1"},"coordinates":{"lat":53.579472,"lng":10.01269},"network":"Stromnetz Hamburg","url":"//www.goingelectric.de/stromtankstellen/Deutschland/Hamburg/Koernerstrasse-Koernerstrasse-1/22720/","fault_report":false,"verified":true},{"chargepoints":[{"type":"Typ2","power":22,"count":2},{"type":"Schuko","power":2.3,"count":2}],"ge_id":22754,"name":"Schwarze Straße","address":{"city":"Hamburg","country":"Deutschland","postcode":"20535","street":"Schwarze Straße 9"},"coordinates":{"lat":53.55695,"lng":10.04357},"network":"Stromnetz Hamburg","url":"//www.goingelectric.de/stromtankstellen/Deutschland/Hamburg/Schwarze-Strasse-Schwarze-Strasse-9/22754/","fault_report":true,"verified":true},{"chargepoints":[{"type":"Typ2","power":22,"count":2},{"type":"Schuko","power":2.3,"count":2}],"ge_id":22767,"name":"Frankenstraße","address":{"city":"Hamburg","country":"Deutschland","postcode":"20097","street":"Frankenstraße 12"},"coordinates":{"lat":53.548,"lng":10.02326},"network":"Stromnetz Hamburg","url":"//www.goingelectric.de/stromtankstellen/Deutschland/Hamburg/Frankenstrasse-Frankenstrasse-12/22767/","fault_report":false,"verified":true},{"chargepoints":[{"type":"Typ2","power":22,"count":2},{"type":"Schuko","power":2.3,"count":2}],"ge_id":22768,"name":"Landwehr","address":{"city":"Hamburg","country":"Deutschland","postcode":"22087","street":"Landwehr 2"},"coordinates":{"lat":53.56311,"lng":10.03538},"network":"Stromnetz Hamburg","url":"//www.goingelectric.de/stromtankstellen/Deutschland/Hamburg/Landwehr-Landwehr-2/22768/","fault_report":false,"verified":true},{"chargepoints":[{"type":"Typ2","power":22,"count":2},{"type":"Schuko","power":2.3,"count":2}],"ge_id":22769,"name":"Schenkendorfstraße","address":{"city":"Hamburg","country":"Deutschland","postcode":"22085","street":"Schenkendorfstraße 37"},"coordinates":{"lat":53.577019,"lng":10.01878},"network":"Stromnetz Hamburg","url":"//www.goingelectric.de/stromtankstellen/Deutschland/Hamburg/Schenkendorfstrasse-Schenkendorfstrasse-37/22769/","fault_report":false,"verified":true},{"chargepoints":[{"type":"Typ2","power":22,"count":2}],"ge_id":22928,"name":"Famila","address":{"city":"Reinbek","country":"Deutschland","postcode":"21465","street":"Liebigstraße 2"},"coordinates":{"lat":53.522907,"lng":10.231313},"network":"Ladenetz","url":"//www.goingelectric.de/stromtankstellen/Deutschland/Reinbek/Famila-Liebigstrasse-2/22928/","fault_report":false,"verified":true},{"chargepoints":[{"type":"Typ2","power":22,"count":2},{"type":"Schuko","power":2.3,"count":2}],"ge_id":22993,"name":"Lidl Dehnhaide","address":{"city":"Hamburg","country":"Deutschland","postcode":"22081","street":"Dehnhaide 111"},"coordinates":{"lat":53.579071,"lng":10.051768},"network":"Stromnetz Hamburg","url":"//www.goingelectric.de/stromtankstellen/Deutschland/Hamburg/Lidl-Dehnhaide-Dehnhaide-111/22993/","fault_report":false,"verified":true},{"chargepoints":[{"type":"Typ2","power":22,"count":2},{"type":"Schuko","power":2.3,"count":2}],"ge_id":23146,"name":"Klaus-Groth-Straße","address":{"city":"Hamburg","country":"Deutschland","postcode":"20535","street":"Klaus-Groth-Straße 42"},"coordinates":{"lat":53.55529,"lng":10.03104},"network":"Stromnetz Hamburg","url":"//www.goingelectric.de/stromtankstellen/Deutschland/Hamburg/Klaus-Groth-Strasse-Klaus-Groth-Strasse-42/23146/","fault_report":false,"verified":true},{"chargepoints":[{"type":"Typ2","power":22,"count":2},{"type":"Schuko","power":2.3,"count":2}],"ge_id":23245,"name":"Carl-Petersen-Straße","address":{"city":"Hamburg","country":"Deutschland","postcode":"20535","street":"Carl-Petersen-Straße 102"},"coordinates":{"lat":53.557541,"lng":10.05065},"network":"Stromnetz Hamburg","url":"//www.goingelectric.de/stromtankstellen/Deutschland/Hamburg/Carl-Petersen-Strasse-Carl-Petersen-Strasse-102/23245/","fault_report":false,"verified":true},{"chargepoints":[{"type":"Typ2","power":22,"count":2},{"type":"Schuko","power":2.3,"count":2}],"ge_id":23246,"name":"Burgstraße","address":{"city":"Hamburg","country":"Deutschland","postcode":"20535","street":"Burgstraße 12"},"coordinates":{"lat":53.556252,"lng":10.04033},"network":"Stromnetz Hamburg","url":"//www.goingelectric.de/stromtankstellen/Deutschland/Hamburg/Burgstrasse-Burgstrasse-12/23246/","fault_report":false,"verified":true},{"chargepoints":[{"type":"Typ2","power":22,"count":2},{"type":"Schuko","power":2.3,"count":2}],"ge_id":23247,"name":"Störtebeker-Haus","address":{"city":"Hamburg","country":"Deutschland","postcode":"20537","street":"Süderstraße 288"},"coordinates":{"lat":53.547619,"lng":10.05132},"network":"Stromnetz Hamburg","url":"//www.goingelectric.de/stromtankstellen/Deutschland/Hamburg/Stoertebeker-Haus-Suederstrasse-288/23247/","fault_report":false,"verified":true},{"chargepoints":[{"type":"Typ2","power":22,"count":2},{"type":"Schuko","power":2.3,"count":2}],"ge_id":23250,"name":"Böckmannstraße","address":{"city":"Hamburg","country":"Deutschland","postcode":"20099","street":"Böckmannstraße 5"},"coordinates":{"lat":53.553467,"lng":10.016991},"network":"Stromnetz Hamburg","url":"//www.goingelectric.de/stromtankstellen/Deutschland/Hamburg/Boeckmannstrasse-Boeckmannstrasse-5/23250/","fault_report":false,"verified":true},{"chargepoints":[{"type":"Typ2","power":22,"count":2},{"type":"Schuko","power":2.3,"count":2}],"ge_id":23428,"name":"Gurlittstraße","address":{"city":"Hamburg","country":"Deutschland","postcode":"20099","street":"Gurlittstraße 31"},"coordinates":{"lat":53.558071,"lng":10.00985},"network":"Stromnetz Hamburg","url":"//www.goingelectric.de/stromtankstellen/Deutschland/Hamburg/Gurlittstrasse-Gurlittstrasse-31/23428/","fault_report":false,"verified":true},{"chargepoints":[{"type":"CCS","power":50,"count":1},{"type":"CHAdeMO","power":50,"count":1},{"type":"Typ2","power":11,"count":1}],"ge_id":23574,"name":"REWE Getränkemarkt","address":{"city":"Hamburg","country":"Deutschland","postcode":"22041","street":"Auf dem Königslande 51"},"coordinates":{"lat":53.58144,"lng":10.07916},"network":"Stromnetz Hamburg","url":"//www.goingelectric.de/stromtankstellen/Deutschland/Hamburg/REWE-Getraenkemarkt-Auf-dem-Koenigslande-51/23574/","fault_report":false,"verified":true},{"chargepoints":[{"type":"CCS","power":50,"count":1},{"type":"Typ2","power":22,"count":1}],"ge_id":23655,"name":"BMW Zentrum","address":{"city":"Barsbüttel","country":"Deutschland","postcode":"22885","street":"Rahlstedter Straße 4-10"},"coordinates":{"lat":53.57732,"lng":10.193381},"network":"Digital Energy Solutions","url":"//www.goingelectric.de/stromtankstellen/Deutschland/Barsbuettel/BMW-Zentrum-Rahlstedter-Strasse-4-10/23655/","fault_report":true,"verified":true},{"chargepoints":[{"type":"Typ2","power":22,"count":2},{"type":"Schuko","power":2.3,"count":2}],"ge_id":23732,"name":"Krochmannstraße","address":{"city":"Hamburg","country":"Deutschland","postcode":"22299","street":"Krochmannstraße 3"},"coordinates":{"lat":53.597038,"lng":10.00201},"network":"Stromnetz Hamburg","url":"//www.goingelectric.de/stromtankstellen/Deutschland/Hamburg/Krochmannstrasse-Krochmannstrasse-3/23732/","fault_report":false,"verified":true},{"chargepoints":[{"type":"Typ2","power":22,"count":2},{"type":"Schuko","power":2.3,"count":2}],"ge_id":23733,"name":"Fährhausstraße","address":{"city":"Hamburg","country":"Deutschland","postcode":"22085","street":"Fährhausstraße 27"},"coordinates":{"lat":53.575878,"lng":10.01374},"network":"Stromnetz Hamburg","url":"//www.goingelectric.de/stromtankstellen/Deutschland/Hamburg/Faehrhausstrasse-Faehrhausstrasse-27/23733/","fault_report":false,"verified":true},{"chargepoints":[{"type":"CCS","power":50,"count":1},{"type":"CHAdeMO","power":50,"count":1},{"type":"Typ2","power":11,"count":1}],"ge_id":23788,"name":"Schnellladesäule Finkenau","address":{"city":"Hamburg","country":"Deutschland","postcode":"22081","street":"Finkenau 11"},"coordinates":{"lat":53.57045,"lng":10.03116},"network":"Stromnetz Hamburg","url":"//www.goingelectric.de/stromtankstellen/Deutschland/Hamburg/Schnellladesaeule-Finkenau-Finkenau-11/23788/","fault_report":false,"verified":true},{"chargepoints":[{"type":"Typ2","power":22,"count":2}],"ge_id":24784,"name":"Meessen","address":{"city":"Oststeinbek","country":"Deutschland","postcode":"22113","street":"Meessen 3"},"coordinates":{"lat":53.548641,"lng":10.15438},"network":"Ladenetz","url":"//www.goingelectric.de/stromtankstellen/Deutschland/Oststeinbek/Meessen-Meessen-3/24784/","fault_report":false,"verified":true},{"chargepoints":[{"type":"Typ2","power":22,"count":2},{"type":"Schuko","power":2.3,"count":2}],"ge_id":25082,"name":"Zimmerpforte","address":{"city":"Hamburg","country":"Deutschland","postcode":"20099","street":"Zimmerpforte 2"},"coordinates":{"lat":53.555679,"lng":10.01208},"network":"Stromnetz Hamburg","url":"//www.goingelectric.de/stromtankstellen/Deutschland/Hamburg/Zimmerpforte-Zimmerpforte-2/25082/","fault_report":false,"verified":true},{"chargepoints":[{"type":"Typ2","power":22,"count":2},{"type":"Schuko","power":2.3,"count":2}],"ge_id":25084,"name":"Schmilinskystraße","address":{"city":"Hamburg","country":"Deutschland","postcode":"20099","street":"Schmilinskystraße 32"},"coordinates":{"lat":53.558998,"lng":10.0129},"network":"Stromnetz Hamburg","url":"//www.goingelectric.de/stromtankstellen/Deutschland/Hamburg/Schmilinskystrasse-Schmilinskystrasse-32/25084/","fault_report":false,"verified":true},{"chargepoints":[{"type":"Typ2","power":22,"count":2},{"type":"Schuko","power":2.3,"count":2}],"ge_id":25096,"name":"Snitgerreihe","address":{"city":"Hamburg","country":"Deutschland","postcode":"22111","street":"Snitgerreihe 38"},"coordinates":{"lat":53.55632,"lng":10.0729},"network":"Stromnetz Hamburg","url":"//www.goingelectric.de/stromtankstellen/Deutschland/Hamburg/Snitgerreihe-Snitgerreihe-38/25096/","fault_report":false,"verified":true},{"chargepoints":[{"type":"Typ2","power":22,"count":2},{"type":"Schuko","power":2.3,"count":2}],"ge_id":25477,"name":"Neuer Höltigbaum","address":{"city":"Hamburg","country":"Deutschland","postcode":"22143","street":"Neuer Höltigbaum 6"},"coordinates":{"lat":53.60947,"lng":10.18468},"network":"Stromnetz Hamburg","url":"//www.goingelectric.de/stromtankstellen/Deutschland/Hamburg/Neuer-Hoeltigbaum-Neuer-Hoeltigbaum-6/25477/","fault_report":false,"verified":true},{"chargepoints":[{"type":"CCS","power":50,"count":1},{"type":"CHAdeMO","power":50,"count":1},{"type":"Typ2","power":11,"count":1}],"ge_id":25478,"name":"Schnellladesäule Berliner Tor","address":{"city":"Hamburg","country":"Deutschland","postcode":"20099","street":"Beim Berliner Tor 2"},"coordinates":{"lat":53.553139,"lng":10.0236},"network":"Stromnetz Hamburg","url":"//www.goingelectric.de/stromtankstellen/Deutschland/Hamburg/Schnellladesaeule-Berliner-Tor-Beim-Berliner-Tor-2/25478/","fault_report":false,"verified":true},{"chargepoints":[{"type":"CCS","power":50,"count":1},{"type":"CHAdeMO","power":50,"count":1},{"type":"Typ2","power":11,"count":1}],"ge_id":25496,"name":"Schnellladesäule REWE / Penny","address":{"city":"Hamburg","country":"Deutschland","postcode":"22143","street":"Bargteheider Straße 82"},"coordinates":{"lat":53.603447,"lng":10.145611},"network":"Stromnetz Hamburg","url":"//www.goingelectric.de/stromtankstellen/Deutschland/Hamburg/Schnellladesaeule-REWE-Penny-Bargteheider-Strasse-82/25496/","fault_report":false,"verified":true},{"chargepoints":[{"type":"CCS","power":50,"count":1},{"type":"CHAdeMO","power":50,"count":1},{"type":"Typ2","power":43,"count":1}],"ge_id":25903,"name":"Kaufland Hamburg-Wandsbek","address":{"city":"Hamburg","country":"Deutschland","postcode":"22047","street":"Helbingtwiete 7-9"},"coordinates":{"lat":53.587436,"lng":10.095557},"network":"Kaufland","url":"//www.goingelectric.de/stromtankstellen/Deutschland/Hamburg/Kaufland-Hamburg-Wandsbek-Helbingtwiete-7-9/25903/","fault_report":true,"verified":true},{"chargepoints":[{"type":"CCS","power":50,"count":1},{"type":"CHAdeMO","power":50,"count":1},{"type":"Typ2","power":11,"count":1}],"ge_id":26610,"name":"Schnellladesäule U-Bahn-Haltestelle Trabrennbahn","address":{"city":"Hamburg","country":"Deutschland","postcode":"22159","street":"Traberweg 2-4"},"coordinates":{"lat":53.597652,"lng":10.101772},"network":"Stromnetz Hamburg","url":"//www.goingelectric.de/stromtankstellen/Deutschland/Hamburg/Schnellladesaeule-U-Bahn-Haltestelle-Trabrennbahn-Traberweg-2-4/26610/","fault_report":false,"verified":true},{"chargepoints":[{"type":"Typ2","power":22,"count":2},{"type":"Schuko","power":2.3,"count":2}],"ge_id":27182,"name":"Averhoffstraße","address":{"city":"Hamburg","country":"Deutschland","postcode":"22085","street":"Averhoffstraße 3a"},"coordinates":{"lat":53.570858,"lng":10.021059},"network":"Stromnetz Hamburg","url":"//www.goingelectric.de/stromtankstellen/Deutschland/Hamburg/Averhoffstrasse-Averhoffstrasse-3a/27182/","fault_report":false,"verified":true},{"chargepoints":[{"type":"Typ2","power":22,"count":2},{"type":"Schuko","power":2.3,"count":2}],"ge_id":27437,"name":"Charlotte-Paulsen-Gymnasium","address":{"city":"Hamburg","country":"Deutschland","postcode":"22041","street":"Neumann-Reichardt-Straße 20"},"coordinates":{"lat":53.572716,"lng":10.079166},"network":"Stromnetz Hamburg","url":"//www.goingelectric.de/stromtankstellen/Deutschland/Hamburg/Charlotte-Paulsen-Gymnasium-Neumann-Reichardt-Strasse-20/27437/","fault_report":false,"verified":true},{"chargepoints":[{"type":"Typ2","power":22,"count":2},{"type":"Schuko","power":2.3,"count":2}],"ge_id":27640,"name":"Arbeitsgericht","address":{"city":"Hamburg","country":"Deutschland","postcode":"22083","street":"Schleidenstraße 6"},"coordinates":{"lat":53.583248,"lng":10.033671},"network":"Stromnetz Hamburg","url":"//www.goingelectric.de/stromtankstellen/Deutschland/Hamburg/Arbeitsgericht-Schleidenstrasse-6/27640/","fault_report":false,"verified":true},{"chargepoints":[{"type":"Typ2","power":22,"count":2},{"type":"Schuko","power":2.3,"count":2}],"ge_id":27814,"name":"Hellbrookstraße","address":{"city":"Hamburg","country":"Deutschland","postcode":"22305","street":"Hellbrookstraße 9"},"coordinates":{"lat":53.591396,"lng":10.038127},"network":"Stromnetz Hamburg","url":"//www.goingelectric.de/stromtankstellen/Deutschland/Hamburg/Hellbrookstrasse-Hellbrookstrasse-9/27814/","fault_report":false,"verified":true},{"chargepoints":[{"type":"Typ2","power":22,"count":2},{"type":"Schuko","power":2.3,"count":2}],"ge_id":27909,"name":"Herderstraße","address":{"city":"Hamburg","country":"Deutschland","postcode":"22085","street":"Herderstraße 37"},"coordinates":{"lat":53.580021,"lng":10.018782},"network":"Stromnetz Hamburg","url":"//www.goingelectric.de/stromtankstellen/Deutschland/Hamburg/Herderstrasse-Herderstrasse-37/27909/","fault_report":false,"verified":true},{"chargepoints":[{"type":"Typ2","power":22,"count":2},{"type":"Schuko","power":2.3,"count":2}],"ge_id":27911,"name":"Caspar-Voght-Straße","address":{"city":"Hamburg","country":"Deutschland","postcode":"20535","street":"Caspar-Voght-Straße 78"},"coordinates":{"lat":53.562672,"lng":10.05984},"network":"Stromnetz Hamburg","url":"//www.goingelectric.de/stromtankstellen/Deutschland/Hamburg/Caspar-Voght-Strasse-Caspar-Voght-Strasse-78/27911/","fault_report":false,"verified":true},{"chargepoints":[{"type":"Typ2","power":22,"count":2},{"type":"Schuko","power":2.3,"count":2}],"ge_id":28247,"name":"Sportallee","address":{"city":"Hamburg","country":"Deutschland","postcode":"22335","street":"Sportallee 81"},"coordinates":{"lat":53.617599,"lng":10.00038},"network":"Stromnetz Hamburg","url":"//www.goingelectric.de/stromtankstellen/Deutschland/Hamburg/Sportallee-Sportallee-81/28247/","fault_report":false,"verified":true},{"chargepoints":[{"type":"Typ2","power":22,"count":2},{"type":"Schuko","power":2.3,"count":2}],"ge_id":29484,"name":"Liebigstraße","address":{"city":"Hamburg","country":"Deutschland","postcode":"22113","street":"Liebigstraße 40"},"coordinates":{"lat":53.533727,"lng":10.088556},"network":"Stromnetz Hamburg","url":"//www.goingelectric.de/stromtankstellen/Deutschland/Hamburg/Liebigstrasse-Liebigstrasse-40/29484/","fault_report":false,"verified":true},{"chargepoints":[{"type":"CCS","power":50,"count":1},{"type":"CHAdeMO","power":50,"count":1},{"type":"Typ2","power":11,"count":1}],"ge_id":29646,"name":"New-York-Ring","address":{"city":"Hamburg","country":"Deutschland","postcode":"22297","street":"New-York-Ring 1"},"coordinates":{"lat":53.602173,"lng":10.018218},"network":"Stromnetz Hamburg","url":"//www.goingelectric.de/stromtankstellen/Deutschland/Hamburg/New-York-Ring-New-York-Ring-1/29646/","fault_report":false,"verified":true},{"chargepoints":[{"type":"CCS","power":50,"count":1},{"type":"CHAdeMO","power":50,"count":1},{"type":"Typ2","power":43,"count":1}],"ge_id":29980,"name":"Bauhaus","address":{"city":"Barsbüttel","country":"Deutschland","postcode":"22885","street":"Rahlstedter Straße 2"},"coordinates":{"lat":53.57674,"lng":10.194565},"network":"allego","url":"//www.goingelectric.de/stromtankstellen/Deutschland/Barsbuettel/Bauhaus-Rahlstedter-Strasse-2/29980/","fault_report":false,"verified":true},{"chargepoints":[{"type":"Typ2","power":22,"count":2},{"type":"Schuko","power":2.3,"count":2}],"ge_id":30079,"name":"Ifflandstraße","address":{"city":"Hamburg","country":"Deutschland","postcode":"22087","street":"Ifflandstraße 22"},"coordinates":{"lat":53.560486,"lng":10.022465},"network":"Stromnetz Hamburg","url":"//www.goingelectric.de/stromtankstellen/Deutschland/Hamburg/Ifflandstrasse-Ifflandstrasse-22/30079/","fault_report":false,"verified":true},{"chargepoints":[{"type":"CCS","power":50,"count":1},{"type":"CHAdeMO","power":50,"count":1},{"type":"Typ2","power":11,"count":1}],"ge_id":30249,"name":"Dithmarscher Straße","address":{"city":"Hamburg","country":"Deutschland","postcode":"22049","street":"Dithmarscher Straße 9a"},"coordinates":{"lat":53.577305,"lng":10.059456},"network":"Stromnetz Hamburg","url":"//www.goingelectric.de/stromtankstellen/Deutschland/Hamburg/Dithmarscher-Strasse-Dithmarscher-Strasse-9a/30249/","fault_report":false,"verified":true},{"chargepoints":[{"type":"Typ2","power":22,"count":2},{"type":"Schuko","power":2.3,"count":2}],"ge_id":30288,"name":"Süderstraße","address":{"city":"Hamburg","country":"Deutschland","postcode":"20537","street":"Süderstraße 26"},"coordinates":{"lat":53.54454,"lng":10.028088},"network":"Stromnetz Hamburg","url":"//www.goingelectric.de/stromtankstellen/Deutschland/Hamburg/Suederstrasse-Suederstrasse-26/30288/","fault_report":false,"verified":true},{"chargepoints":[{"type":"Typ2","power":22,"count":2}],"ge_id":33854,"name":"REWE Center / Parken in Winterhude","address":{"city":"Hamburg","country":"Deutschland","postcode":"22301","street":"Krohnskamp 33"},"coordinates":{"lat":53.587749,"lng":10.008513},"network":"innogy eRoaming","url":"//www.goingelectric.de/stromtankstellen/Deutschland/Hamburg/REWE-Center-Parken-in-Winterhude-Krohnskamp-33/33854/","fault_report":false,"verified":true},{"chargepoints":[{"type":"CCS","power":50,"count":1},{"type":"CHAdeMO","power":50,"count":1},{"type":"Typ2","power":43,"count":1}],"ge_id":34268,"name":"Famila","address":{"city":"Hamburg","country":"Deutschland","postcode":"22309","street":"Eichenlohweg 17"},"coordinates":{"lat":53.608351,"lng":10.044143},"network":"E.ON","url":"//www.goingelectric.de/stromtankstellen/Deutschland/Hamburg/Famila-Eichenlohweg-17/34268/","fault_report":false,"verified":true},{"chargepoints":[{"type":"CCS","power":50,"count":1},{"type":"CHAdeMO","power":50,"count":1},{"type":"Typ2","power":11,"count":1}],"ge_id":34289,"name":"Schnellladesäule Schloßstraße","address":{"city":"Hamburg","country":"Deutschland","postcode":"22041","street":"Schloßstraße 8"},"coordinates":{"lat":53.571144,"lng":10.06515},"network":"Stromnetz Hamburg","url":"//www.goingelectric.de/stromtankstellen/Deutschland/Hamburg/Schnellladesaeule-Schlossstrasse-Schlossstrasse-8/34289/","fault_report":false,"verified":true},{"chargepoints":[{"type":"CCS","power":50,"count":1},{"type":"CHAdeMO","power":50,"count":1},{"type":"Typ2","power":43,"count":1}],"ge_id":34942,"name":"Am Schiffbeker Berg","address":{"city":"Hamburg","country":"Deutschland","postcode":"22111","street":"Am Schiffbeker Berg 6a"},"coordinates":{"lat":53.542393,"lng":10.092198},"network":"allego","url":"//www.goingelectric.de/stromtankstellen/Deutschland/Hamburg/Am-Schiffbeker-Berg-Am-Schiffbeker-Berg-6a/34942/","fault_report":false,"verified":true},{"chargepoints":[{"type":"Typ2","power":22,"count":2},{"type":"Schuko","power":2.3,"count":2}],"ge_id":35301,"name":"Erika-Mann-Bogen","address":{"city":"Hamburg","country":"Deutschland","postcode":"22081","street":"Erika-Mann-Bogen 18"},"coordinates":{"lat":53.576427,"lng":10.04969},"network":"Stromnetz Hamburg","url":"//www.goingelectric.de/stromtankstellen/Deutschland/Hamburg/Erika-Mann-Bogen-Erika-Mann-Bogen-18/35301/","fault_report":false,"verified":true},{"chargepoints":[{"type":"Typ2","power":22,"count":2},{"type":"Schuko","power":2.3,"count":2}],"ge_id":36440,"name":"Steilshooper Straße Süd","address":{"city":"Hamburg","country":"Deutschland","postcode":"22305","street":"Steilshooper Straße 59"},"coordinates":{"lat":53.587612,"lng":10.049357},"network":"Stromnetz Hamburg","url":"//www.goingelectric.de/stromtankstellen/Deutschland/Hamburg/Steilshooper-Strasse-Sued-Steilshooper-Strasse-59/36440/","fault_report":false,"verified":true},{"chargepoints":[{"type":"Typ2","power":22,"count":2},{"type":"Schuko","power":2.3,"count":2}],"ge_id":36905,"name":"Husarenhof","address":{"city":"Hamburg","country":"Deutschland","postcode":"22043","street":"Husarenhof"},"coordinates":{"lat":53.564222,"lng":10.075602},"network":"Stromnetz Hamburg","url":"//www.goingelectric.de/stromtankstellen/Deutschland/Hamburg/Husarenhof-Husarenhof/36905/","fault_report":false,"verified":true},{"chargepoints":[{"type":"Typ2","power":22,"count":2}],"ge_id":36918,"name":"Lidl Hamburg-Horn","address":{"city":"Hamburg","country":"Deutschland","postcode":"22119","street":"Manshardtstraße 74"},"coordinates":{"lat":53.557455,"lng":10.101119},"network":"Lidl","url":"//www.goingelectric.de/stromtankstellen/Deutschland/Hamburg/Lidl-Hamburg-Horn-Manshardtstrasse-74/36918/","fault_report":false,"verified":true},{"chargepoints":[{"type":"Typ2","power":22,"count":2},{"type":"Schuko","power":2.3,"count":2}],"ge_id":36977,"name":"Ratsmühlendamm","address":{"city":"Hamburg","country":"Deutschland","postcode":"22335","street":"Ratsmühlendamm 13"},"coordinates":{"lat":53.626057,"lng":10.027168},"network":"Stromnetz Hamburg","url":"//www.goingelectric.de/stromtankstellen/Deutschland/Hamburg/Ratsmuehlendamm-Ratsmuehlendamm-13/36977/","fault_report":false,"verified":true},{"chargepoints":[{"type":"Typ2","power":22,"count":2},{"type":"Schuko","power":2.3,"count":2}],"ge_id":37559,"name":"Beethovenstraße","address":{"city":"Hamburg","country":"Deutschland","postcode":"22083","street":"Beethovenstraße 68"},"coordinates":{"lat":53.579191,"lng":10.031252},"network":"Stromnetz Hamburg","url":"//www.goingelectric.de/stromtankstellen/Deutschland/Hamburg/Beethovenstrasse-Beethovenstrasse-68/37559/","fault_report":false,"verified":true},{"chargepoints":[{"type":"Typ2","power":22,"count":2},{"type":"Schuko","power":2,"count":2}],"ge_id":37694,"name":"Lessingstraße","address":{"city":"Hamburg","country":"Deutschland","postcode":"22087","street":"Lessingstraße 21"},"coordinates":{"lat":53.565261,"lng":10.031},"network":"Stromnetz Hamburg","url":"//www.goingelectric.de/stromtankstellen/Deutschland/Hamburg/Lessingstrasse-Lessingstrasse-21/37694/","fault_report":false,"verified":true},{"chargepoints":[{"type":"Typ2","power":22,"count":2}],"ge_id":39188,"name":"Schwimmbad","address":{"city":"Barsbüttel","country":"Deutschland","postcode":"22885","street":"Soltausredder 20"},"coordinates":{"lat":53.572155,"lng":10.162531},"network":"Ladenetz","url":"//www.goingelectric.de/stromtankstellen/Deutschland/Barsbuettel/Schwimmbad-Soltausredder-20/39188/","fault_report":false,"verified":true},{"chargepoints":[{"type":"Typ2","power":22,"count":2}],"ge_id":39212,"name":"Schröders Koppel","address":{"city":"Reinbek","country":"Deutschland","postcode":"21465","street":"Schröders Koppel 10"},"coordinates":{"lat":53.545994,"lng":10.238721},"network":"Ladenetz","url":"//www.goingelectric.de/stromtankstellen/Deutschland/Reinbek/Schroeders-Koppel-Schroeders-Koppel-10/39212/","fault_report":false,"verified":true},{"chargepoints":[{"type":"Typ2","power":22,"count":2},{"type":"Schuko","power":2.3,"count":2}],"ge_id":39289,"name":"Gertigstraße","address":{"city":"Hamburg","country":"Deutschland","postcode":"22303","street":"Gertigstraße 64"},"coordinates":{"lat":53.582853,"lng":10.018196},"network":"Stromnetz Hamburg","url":"//www.goingelectric.de/stromtankstellen/Deutschland/Hamburg/Gertigstrasse-Gertigstrasse-64/39289/","fault_report":false,"verified":true},{"chargepoints":[{"type":"Typ2","power":22,"count":2},{"type":"Schuko","power":2,"count":2}],"ge_id":39536,"name":"Asklepios Klinik","address":{"city":"Hamburg","country":"Deutschland","postcode":"22307","street":"Rübenkamp 148"},"coordinates":{"lat":53.603781,"lng":10.03511},"network":"Stromnetz Hamburg","url":"//www.goingelectric.de/stromtankstellen/Deutschland/Hamburg/Asklepios-Klinik-Ruebenkamp-148/39536/","fault_report":false,"verified":true},{"chargepoints":[{"type":"Typ2","power":22,"count":2},{"type":"Schuko","power":2.3,"count":2}],"ge_id":39910,"name":"Gotenstraße","address":{"city":"Hamburg","country":"Deutschland","postcode":"20097","street":"Gotenstraße 21"},"coordinates":{"lat":53.549675,"lng":10.025767},"network":"Stromnetz Hamburg","url":"//www.goingelectric.de/stromtankstellen/Deutschland/Hamburg/Gotenstrasse-Gotenstrasse-21/39910/","fault_report":false,"verified":true},{"chargepoints":[{"type":"Typ2","power":22,"count":2},{"type":"Schuko","power":2.3,"count":2}],"ge_id":39911,"name":"Wendenstraße 162","address":{"city":"Hamburg","country":"Deutschland","postcode":"20537","street":"Wendenstraße 156"},"coordinates":{"lat":53.549008,"lng":10.033125},"network":"Stromnetz Hamburg","url":"//www.goingelectric.de/stromtankstellen/Deutschland/Hamburg/Wendenstrasse-162-Wendenstrasse-156/39911/","fault_report":false,"verified":true},{"chargepoints":[{"type":"Typ2","power":22,"count":2},{"type":"Schuko","power":2.3,"count":2}],"ge_id":39912,"name":"Frankenstraße","address":{"city":"Hamburg","country":"Deutschland","postcode":"20097","street":"Frankenstraße 35"},"coordinates":{"lat":53.549562,"lng":10.026162},"network":"Stromnetz Hamburg","url":"//www.goingelectric.de/stromtankstellen/Deutschland/Hamburg/Frankenstrasse-Frankenstrasse-35/39912/","fault_report":false,"verified":true},{"chargepoints":[{"type":"Typ2","power":22,"count":2},{"type":"Schuko","power":2.3,"count":2}],"ge_id":40088,"name":"Peter-Marquard-Straße","address":{"city":"Hamburg","country":"Deutschland","postcode":"22303","street":"Peter-Marquard-Straße 13"},"coordinates":{"lat":53.583329,"lng":10.013145},"network":"Stromnetz Hamburg","url":"//www.goingelectric.de/stromtankstellen/Deutschland/Hamburg/Peter-Marquard-Strasse-Peter-Marquard-Strasse-13/40088/","fault_report":false,"verified":true},{"chargepoints":[{"type":"CCS","power":50,"count":1},{"type":"CHAdeMO","power":50,"count":1},{"type":"Typ2","power":22,"count":1}],"ge_id":40329,"name":"Ostkreuz Center","address":{"city":"Hamburg","country":"Deutschland","postcode":"22113","street":"Willinghusener Weg 1"},"coordinates":{"lat":53.545921,"lng":10.154421},"network":"Ladenetz","url":"//www.goingelectric.de/stromtankstellen/Deutschland/Hamburg/Ostkreuz-Center-Willinghusener-Weg-1/40329/","fault_report":false,"verified":true},{"chargepoints":[{"type":"Typ2","power":22,"count":2},{"type":"Schuko","power":2,"count":2}],"ge_id":40617,"name":"Wellingsbütteler Landstraße","address":{"city":"Hamburg","country":"Deutschland","postcode":"22337","street":"Wellingsbütteler Landstraße 64"},"coordinates":{"lat":53.629098,"lng":10.035721},"network":"Stromnetz Hamburg","url":"//www.goingelectric.de/stromtankstellen/Deutschland/Hamburg/Wellingsbuetteler-Landstrasse-Wellingsbuetteler-Landstrasse-64/40617/","fault_report":false,"verified":true},{"chargepoints":[{"type":"Typ2","power":22,"count":2},{"type":"Schuko","power":3.6,"count":2}],"ge_id":40715,"name":"Moorfuhrtweg","address":{"city":"Hamburg","country":"Deutschland","postcode":"22301","street":"Moorfuhrtweg 13"},"coordinates":{"lat":53.585356,"lng":10.008765},"network":"Stromnetz Hamburg","url":"//www.goingelectric.de/stromtankstellen/Deutschland/Hamburg/Moorfuhrtweg-Moorfuhrtweg-13/40715/","fault_report":false,"verified":true},{"chargepoints":[{"type":"Typ2","power":22,"count":2},{"type":"Schuko","power":3.6,"count":2}],"ge_id":40761,"name":"Grevenweg","address":{"city":"Hamburg","country":"Deutschland","postcode":"20537","street":"Grevenweg 88"},"coordinates":{"lat":53.550424,"lng":10.041939},"network":"Stromnetz Hamburg","url":"//www.goingelectric.de/stromtankstellen/Deutschland/Hamburg/Grevenweg-Grevenweg-88/40761/","fault_report":false,"verified":true},{"chargepoints":[{"type":"CCS","power":100,"count":1},{"type":"CHAdeMO","power":60,"count":1}],"ge_id":40866,"name":"Telekom Berne","address":{"city":"Hamburg","country":"Deutschland","postcode":"22159","street":"Berner Allee 29"},"coordinates":{"lat":53.628544,"lng":10.134727},"network":"Comfortcharge","url":"//www.goingelectric.de/stromtankstellen/Deutschland/Hamburg/Telekom-Berne-Berner-Allee-29/40866/","fault_report":false,"verified":true},{"chargepoints":[{"type":"Typ2","power":22,"count":2},{"type":"Schuko","power":3.6,"count":2}],"ge_id":40872,"name":"Mühlendamm","address":{"city":"Hamburg","country":"Deutschland","postcode":"22087","street":"Mühlendamm 29"},"coordinates":{"lat":53.561657,"lng":10.025137},"network":"Stromnetz Hamburg","url":"//www.goingelectric.de/stromtankstellen/Deutschland/Hamburg/Muehlendamm-Muehlendamm-29/40872/","fault_report":false,"verified":true},{"chargepoints":[{"type":"Typ2","power":22,"count":2},{"type":"Schuko","power":3.6,"count":2}],"ge_id":40918,"name":"Nagelsweg","address":{"city":"Hamburg","country":"Deutschland","postcode":"20097","street":"Nagelsweg 33"},"coordinates":{"lat":53.547521,"lng":10.019188},"network":"Stromnetz Hamburg","url":"//www.goingelectric.de/stromtankstellen/Deutschland/Hamburg/Nagelsweg-Nagelsweg-33/40918/","fault_report":false,"verified":true},{"chargepoints":[{"type":"Typ2","power":22,"count":2},{"type":"Schuko","power":3.6,"count":2}],"ge_id":41302,"name":"Winterhuder Weg","address":{"city":"Hamburg","country":"Deutschland","postcode":"22085","street":"Winterhuder Weg 42"},"coordinates":{"lat":53.572696,"lng":10.02437},"network":"Stromnetz Hamburg","url":"//www.goingelectric.de/stromtankstellen/Deutschland/Hamburg/Winterhuder-Weg-Winterhuder-Weg-42/41302/","fault_report":false,"verified":true},{"chargepoints":[{"type":"CCS","power":150,"count":1},{"type":"CHAdeMO","power":50,"count":1},{"type":"Typ2","power":22,"count":1},{"type":"Typ2","power":22,"count":1}],"ge_id":41354,"name":"Telekom Steilshoop","address":{"city":"Hamburg","country":"Deutschland","postcode":"22309","street":"Schmachthäger Straße 8"},"coordinates":{"lat":53.603706,"lng":10.048376},"network":"Comfortcharge","url":"//www.goingelectric.de/stromtankstellen/Deutschland/Hamburg/Telekom-Steilshoop-Schmachthaeger-Strasse-8/41354/","fault_report":false,"verified":true},{"chargepoints":[{"type":"Typ2","power":22,"count":2},{"type":"Schuko","power":3.6,"count":2}],"ge_id":41704,"name":"Ausbildungszentrum Bau","address":{"city":"Hamburg","country":"Deutschland","postcode":"22309","street":"Schwarzer Weg 3"},"coordinates":{"lat":53.60704,"lng":10.053971},"network":"Stromnetz Hamburg","url":"//www.goingelectric.de/stromtankstellen/Deutschland/Hamburg/Ausbildungszentrum-Bau-Schwarzer-Weg-3/41704/","fault_report":false,"verified":true},{"chargepoints":[{"type":"CCS","power":350,"count":1},{"type":"CCS","power":125,"count":2},{"type":"CHAdeMO","power":62,"count":2}],"ge_id":43175,"name":"Audi Hamburg Süd","address":{"city":"Hamburg","country":"Deutschland","postcode":"20537","street":"Ausschläger Weg 72"},"coordinates":{"lat":53.548818,"lng":10.036042},"network":"Chargepoint","url":"//www.goingelectric.de/stromtankstellen/Deutschland/Hamburg/Audi-Hamburg-Sued-Ausschlaeger-Weg-72/43175/","fault_report":false,"verified":true},{"chargepoints":[{"type":"CCS","power":350,"count":1},{"type":"CCS","power":125,"count":2},{"type":"CHAdeMO","power":60,"count":2}],"ge_id":43176,"name":"Audi Hamburg Süd Parkdeck","address":{"city":"Hamburg","country":"Deutschland","postcode":"20537","street":"Ausschläger Weg 72"},"coordinates":{"lat":53.54864,"lng":10.036418},"network":"Chargepoint","url":"//www.goingelectric.de/stromtankstellen/Deutschland/Hamburg/Audi-Hamburg-Sued-Parkdeck-Ausschlaeger-Weg-72/43176/","fault_report":false,"verified":true},{"chargepoints":[{"type":"CCS","power":50,"count":1},{"type":"CHAdeMO","power":50,"count":1},{"type":"Typ2","power":43,"count":1}],"ge_id":43492,"name":"Buddenhagen","address":{"city":"Ahrensburg","country":"Deutschland","postcode":"22926","street":"Hamburger Straße 57"},"coordinates":{"lat":53.668843,"lng":10.231104},"network":"EnBW","url":"//www.goingelectric.de/stromtankstellen/Deutschland/Ahrensburg/Buddenhagen-Hamburger-Strasse-57/43492/","fault_report":false,"verified":true},{"chargepoints":[{"type":"Typ2","power":22,"count":16}],"ge_id":43651,"name":"Mercedes-Benz Niederlassung","address":{"city":"Hamburg","country":"Deutschland","postcode":"22047","street":"Friedrich-Ebert-Damm 115"},"coordinates":{"lat":53.58849,"lng":10.094053},"network":"Chargepoint","url":"//www.goingelectric.de/stromtankstellen/Deutschland/Hamburg/Mercedes-Benz-Niederlassung-Friedrich-Ebert-Damm-115/43651/","fault_report":false,"verified":true},{"chargepoints":[{"type":"CCS","power":300,"count":2},{"type":"CHAdeMO","power":50,"count":1}],"ge_id":44136,"name":"HPC Shell Andreas-Meyer-Straße","address":{"city":"Hamburg","country":"Deutschland","postcode":"22113","street":"Andreas-Meyer-Straße 44"},"coordinates":{"lat":53.515377,"lng":10.082037},"network":"EnBW","url":"//www.goingelectric.de/stromtankstellen/Deutschland/Hamburg/HPC-Shell-Andreas-Meyer-Strasse-Andreas-Meyer-Strasse-44/44136/","fault_report":false,"verified":true},{"chargepoints":[{"type":"Typ2","power":22,"count":2},{"type":"Schuko","power":2,"count":2}],"ge_id":45982,"name":"Schule Schimmelmannstraße","address":{"city":"Hamburg","country":"Deutschland","postcode":"22043","street":"Schimmelmannstraße 70"},"coordinates":{"lat":53.571885,"lng":10.103518},"network":"Stromnetz Hamburg","url":"//www.goingelectric.de/stromtankstellen/Deutschland/Hamburg/Schule-Schimmelmannstrasse-Schimmelmannstrasse-70/45982/","fault_report":false,"verified":true},{"chargepoints":[{"type":"Typ2","power":22,"count":2}],"ge_id":46282,"name":"Buchenweg","address":{"city":"Glinde","country":"Deutschland","postcode":"21509","street":"Buchenweg 5a"},"coordinates":{"lat":53.534955,"lng":10.218852},"network":"Ladenetz","url":"//www.goingelectric.de/stromtankstellen/Deutschland/Glinde/Buchenweg-Buchenweg-5a/46282/","fault_report":false,"verified":true},{"chargepoints":[{"type":"CCS","power":175,"count":2},{"type":"CHAdeMO","power":100,"count":2}],"ge_id":47430,"name":"HPC Shell Tankstelle Schiffbeker Weg","address":{"city":"Hamburg","country":"Deutschland","postcode":"22119","street":"Schiffbeker Weg 90"},"coordinates":{"lat":53.548307,"lng":10.108613},"network":"NewMotion","url":"//www.goingelectric.de/stromtankstellen/Deutschland/Hamburg/HPC-Shell-Tankstelle-Schiffbeker-Weg-Schiffbeker-Weg-90/47430/","fault_report":false,"verified":true},{"chargepoints":[{"type":"Typ2","power":22,"count":2},{"type":"Schuko","power":3.7,"count":2}],"ge_id":47780,"name":"Ritterstraße","address":{"city":"Hamburg","country":"Deutschland","postcode":"22089","street":"Ritterstraße 11"},"coordinates":{"lat":53.568099,"lng":10.044669},"network":"Stromnetz Hamburg","url":"//www.goingelectric.de/stromtankstellen/Deutschland/Hamburg/Ritterstrasse-Ritterstrasse-11/47780/","fault_report":false,"verified":true},{"chargepoints":[{"type":"Typ2","power":22,"count":4}],"ge_id":48912,"name":"Vogelweide","address":{"city":"Hamburg","country":"Deutschland","postcode":"22081","street":"Vogelweide 37"},"coordinates":{"lat":53.578812,"lng":10.040365},"network":"Stromnetz Hamburg","url":"//www.goingelectric.de/stromtankstellen/Deutschland/Hamburg/Vogelweide-Vogelweide-37/48912/","fault_report":false,"verified":true},{"chargepoints":[{"type":"Typ2","power":22,"count":2}],"ge_id":48942,"name":"EKZ Grenzweg","address":{"city":"Reinbek","country":"Deutschland","postcode":"21465","street":"Grenzweg 30"},"coordinates":{"lat":53.553302,"lng":10.243118},"network":"Ladenetz","url":"//www.goingelectric.de/stromtankstellen/Deutschland/Reinbek/EKZ-Grenzweg-Grenzweg-30/48942/","fault_report":false,"verified":true},{"chargepoints":[{"type":"Typ2","power":22,"count":2}],"ge_id":48944,"name":"Sportplatz","address":{"city":"Glinde","country":"Deutschland","postcode":"21509","street":"Am Sportplatz 1"},"coordinates":{"lat":53.543234,"lng":10.216657},"network":"Ladenetz","url":"//www.goingelectric.de/stromtankstellen/Deutschland/Glinde/Sportplatz-Am-Sportplatz-1/48944/","fault_report":false,"verified":true},{"chargepoints":[{"type":"Typ2","power":22,"count":2}],"ge_id":48945,"name":"Möllner Landstraße","address":{"city":"Glinde","country":"Deutschland","postcode":"21509","street":"Möllner Landstraße 32"},"coordinates":{"lat":53.540193,"lng":10.202876},"network":"Ladenetz","url":"//www.goingelectric.de/stromtankstellen/Deutschland/Glinde/Moellner-Landstrasse-Moellner-Landstrasse-32/48945/","fault_report":false,"verified":true},{"chargepoints":[{"type":"Typ2","power":22,"count":2}],"ge_id":48946,"name":"Sportforum","address":{"city":"Oststeinbek","country":"Deutschland","postcode":"22113","street":"Meessen 32"},"coordinates":{"lat":53.548225,"lng":10.165754},"network":"Ladenetz","url":"//www.goingelectric.de/stromtankstellen/Deutschland/Oststeinbek/Sportforum-Meessen-32/48946/","fault_report":false,"verified":true},{"chargepoints":[{"type":"Typ2","power":22,"count":2}],"ge_id":48947,"name":"Hauptstraße","address":{"city":"Barsbüttel","country":"Deutschland","postcode":"22885","street":"Hauptstraße 10"},"coordinates":{"lat":53.569049,"lng":10.154826},"network":"Ladenetz","url":"//www.goingelectric.de/stromtankstellen/Deutschland/Barsbuettel/Hauptstrasse-Hauptstrasse-10/48947/","fault_report":false,"verified":true},{"chargepoints":[{"type":"CCS","power":175,"count":2},{"type":"CHAdeMO","power":100,"count":2}],"ge_id":51145,"name":"Shell Tankstelle","address":{"city":"Hamburg","country":"Deutschland","postcode":"22047","street":"Friedrich-Ebert-Damm 171"},"coordinates":{"lat":53.589485,"lng":10.09981},"network":"NewMotion","url":"//www.goingelectric.de/stromtankstellen/Deutschland/Hamburg/Shell-Tankstelle-Friedrich-Ebert-Damm-171/51145/","fault_report":false,"verified":true},{"chargepoints":[{"type":"Typ2","power":22,"count":11}],"ge_id":52443,"name":"Räber Kommunikationstechnik GmbH","address":{"city":"Hamburg","country":"Deutschland","postcode":"22335","street":"Sportallee 81"},"coordinates":{"lat":53.617259,"lng":10.000343},"network":"Stromnetz Hamburg","url":"//www.goingelectric.de/stromtankstellen/Deutschland/Hamburg/Raeber-Kommunikationstechnik-GmbH-Sportallee-81/52443/","fault_report":false,"verified":true},{"chargepoints":[{"type":"Typ2","power":22,"count":2}],"ge_id":52811,"name":"Kreisel Holstenkamp","address":{"city":"Glinde","country":"Deutschland","postcode":"21509","street":"Holstenkamp 1"},"coordinates":{"lat":53.541021,"lng":10.227515},"network":"Ladenetz","url":"//www.goingelectric.de/stromtankstellen/Deutschland/Glinde/Kreisel-Holstenkamp-Holstenkamp-1/52811/","fault_report":false,"verified":true},{"chargepoints":[{"type":"Typ2","power":22,"count":2}],"ge_id":52812,"name":"Ahornweg","address":{"city":"Glinde","country":"Deutschland","postcode":"21509","street":"Ahornweg 4"},"coordinates":{"lat":53.535611,"lng":10.230122},"network":"Ladenetz","url":"//www.goingelectric.de/stromtankstellen/Deutschland/Glinde/Ahornweg-Ahornweg-4/52812/","fault_report":false,"verified":true},{"chargepoints":[{"type":"Typ2","power":22,"count":2}],"ge_id":52813,"name":"Achtern Barg","address":{"city":"Barsbüttel","country":"Deutschland","postcode":"22885","street":"Achtern Barg 31"},"coordinates":{"lat":53.572417,"lng":10.17682},"network":"Ladenetz","url":"//www.goingelectric.de/stromtankstellen/Deutschland/Barsbuettel/Achtern-Barg-Achtern-Barg-31/52813/","fault_report":false,"verified":true},{"chargepoints":[{"type":"CCS","power":300,"count":4},{"type":"CHAdeMO","power":100,"count":2}],"ge_id":53696,"name":"Aral Großmannstraße","address":{"city":"Hamburg","country":"Deutschland","postcode":"20539","street":"Großmannstraße 195-211"},"coordinates":{"lat":53.536457,"lng":10.06471},"network":"Aral","url":"//www.goingelectric.de/stromtankstellen/Deutschland/Hamburg/Aral-Grossmannstrasse-Grossmannstrasse-195-211/53696/","fault_report":false,"verified":true}]}